<?xml version="1.0" encoding="UTF-8" standalone="no"?>
<GEOGRAPHY>
  <Waypoints>
    <waypoint latitude="40.78528" longitude="-73.87055" name="LGA22"/>
    <waypoint latitude="40.78528" longitude="-73.87055" name="LGA31"/>
    <waypoint latitude="39.97167" longitude="-74.82694" name="HOLEY"/>
    <waypoint latitude="40.52222" longitude="-75.03722" name="AWARE"/>
    <waypoint latitude="41.19278" longitude="-73.6625" name="ELZEE"/>
    <waypoint latitude="40.76333" longitude="-75.60056" name="VIBES"/>
    <waypoint latitude="39.67639" longitude="-75.1125" name="BESSI"/>
    <waypoint latitude="39.07167" longitude="-77.13972" name="KUBEY"/>
    <waypoint latitude="40.78417" longitude="-73.70306" name="MOTTI"/>
    <waypoint latitude="39.05806" longitude="-75.74611" name="SPEAK"/>
    <waypoint latitude="40.76722" longitude="-73.84722" name="ANZZA"/>
    <waypoint latitude="39.50611" longitude="-75.27194" name="SKIPY"/>
    <waypoint latitude="39.9225" longitude="-74.89722" name="DAVYS"/>
    <waypoint latitude="42.33722" longitude="-71.12361" name="WIBAS"/>
    <waypoint latitude="40.51056" longitude="-74.07333" name="BYRNN"/>
    <waypoint latitude="40.67916" longitude="-73.94195" name="TYRAL"/>
    <waypoint latitude="41.06778" longitude="-73.55473" name="IKILY"/>
    <waypoint latitude="39.84861" longitude="-74.96389" name="EDJER"/>
    <waypoint latitude="40.85695" longitude="-79.80055" name="GRACE"/>
    <waypoint latitude="39.1025" longitude="-76.85833" name="FATIR"/>
    <waypoint latitude="40.79972" longitude="-75.74639" name="BILEY"/>
    <waypoint latitude="41.23472" longitude="-73.70028" name="DOSWL"/>
    <waypoint latitude="40.91639" longitude="-77.99277" name="PSB"/>
    <waypoint latitude="38.98611" longitude="-77.17667" name="LAZIR"/>
    <waypoint latitude="40.2025" longitude="-74.495" name="RBV"/>
    <waypoint latitude="42.36028" longitude="-70.98778" name="BOS27"/>
    <waypoint latitude="41.43528" longitude="-73.88167" name="VALRE" isMeterFix="true"/>
    <waypoint latitude="40.035" longitude="-74.73611" name="BRAND"/>
    <waypoint latitude="38.94722" longitude="-77.13389" name="COVTO"/>
    <waypoint latitude="40.735" longitude="-78.33139" name="TON"/>
    <waypoint latitude="41.11639" longitude="-73.59361" name="HAARP"/>
    <waypoint latitude="40.71417" longitude="-73.91472" name="ARRYA"/>
    <waypoint latitude="40.91889" longitude="-76.23167" name="MARRC"/>
    <waypoint latitude="41.02333" longitude="-76.66528" name="MIP"/>
    <waypoint latitude="41.98167" longitude="-87.90667" name="KORD"/>
    <waypoint latitude="39.71722" longitude="-86.29472" name="KIND"/>
    <waypoint latitude="38.01361" longitude="-78.15305" name="GVE"/>
    <waypoint latitude="40.30194" longitude="-74.69917" name="HAYER"/>
    <waypoint latitude="38.94305" longitude="-75.78972" name="RIDGY"/>
    <waypoint latitude="40.795" longitude="-73.86278" name="RAMUP"/>
    <waypoint latitude="40.22972" longitude="-74.46056" name="SHVAL"/>
    <waypoint latitude="41.34361" longitude="-73.79861" name="BASYE"/>
    <waypoint latitude="40.9225" longitude="-73.59666" name="JETAX"/>
    <waypoint latitude="35.21361" longitude="-80.94917" name="KCLT"/>
    <waypoint latitude="40.375" longitude="-74.27695" name="MINKS"/>
    <waypoint latitude="39.23167" longitude="-75.51611" name="ENO"/>
    <waypoint latitude="42.20195" longitude="-71.62778" name="BOSOX"/>
    <waypoint latitude="37.54583" longitude="-77.31611" name="HALIR"/>
    <waypoint latitude="40.29389" longitude="-74.49361" name="COSTL"/>
    <waypoint latitude="41.93917" longitude="-72.68333" name="BDL"/>
    <waypoint latitude="38.28778" longitude="-76.40028" name="PXT"/>
    <waypoint latitude="38.09972" longitude="-76.66417" name="COLIN"/>
    <waypoint latitude="38.69444" longitude="-76.02278" name="GARED"/>
    <waypoint latitude="39.99805" longitude="-82.89194" name="KCMH"/>
    <waypoint latitude="40.83111" longitude="-73.83305" name="ALEKS"/>
    <waypoint latitude="40.74389" longitude="-73.79889" name="TAZIE"/>
    <waypoint latitude="38.90083" longitude="-77.06805" name="ADAXE"/>
    <waypoint latitude="38.91555" longitude="-77.1075" name="BEBLE"/>
    <waypoint latitude="40.28944" longitude="-74.385" name="TYKES"/>
    <waypoint latitude="40.75611" longitude="-73.72667" name="FURNN"/>
    <waypoint latitude="40.45555" longitude="-74.11945" name="BILLN"/>
    <waypoint latitude="39.02806" longitude="-76.37278" name="PALEO"/>
    <waypoint latitude="40.72472" longitude="-73.85611" name="BONNO"/>
    <waypoint latitude="37.50222" longitude="-77.32027" name="RIC34"/>
    <waypoint latitude="38.05667" longitude="-75.46389" name="SWL"/>
    <waypoint latitude="38.87111" longitude="-77.03972" name="FIROP"/>
    <waypoint latitude="33.63667" longitude="-84.42778" name="KATL"/>
    <waypoint latitude="40.39667" longitude="-74.90861" name="FOLAM"/>
    <waypoint latitude="41.66555" longitude="-73.82222" name="IGN"/>
    <waypoint latitude="40.8525" longitude="-73.89083" name="BEGNZ"/>
    <waypoint latitude="39.90222" longitude="-84.21944" name="KDAY"/>
    <waypoint latitude="41.40944" longitude="-81.85472" name="KCLE"/>
    <waypoint latitude="40.09389" longitude="-74.65166" name="KORRY" isMeterFix="true" />
    <waypoint latitude="39.04361" longitude="-76.06973" name="AGARD"/>
    <waypoint latitude="41.215" longitude="-78.14278" name="ETG"/>
    <waypoint latitude="40.76889" longitude="-73.88389" name="LGA04"/>
    <waypoint latitude="41.27139" longitude="-73.73583" name="FODAK"/>
    <waypoint latitude="41.51694" longitude="-81.16306" name="CXR"/>
    <waypoint latitude="40.63" longitude="-73.98028" name="VERGE"/>
    <waypoint latitude="40.60611" longitude="-75.15056" name="FINSI" isMeterFix="true" />
    <waypoint latitude="40.14528" longitude="-74.57777" name="CNRAD"/>
    <waypoint latitude="38.85222" longitude="-77.04528" name="DCA01"/>
    <waypoint latitude="37.78639" longitude="-77.0325" name="SVILL"/>
  </Waypoints>
  <Airports>
    <airport latitude="40.78528" longitude="-73.87055" name="LGA">
      <runway name="LGA22" qfu="22"/>
      <runway name="LGA04" qfu="4"/>
      <runway name="LGA13" qfu="13"/>
      <runway name="LGA31" qfu="31"/>
    </airport>
    <airport latitude="40.639722" longitude="-73.778889" name="JFK">
      <runway name="JFK-04L" qfu="4"/>
      <runway name="JFK-04R" qfu="4"/>
      <runway name="JFK-22L" qfu="22"/>
      <runway name="JFK-22R" qfu="22"/>
      <runway name="JFK-13L" qfu="13"/>
      <runway name="JFK-13R" qfu="13"/>
      <runway name="JFK-31L" qfu="31"/>
      <runway name="JFK-31R" qfu="31"/>
    </airport>
    <airport latitude="40.6925" longitude=" -74.168611" name="EWR">
      <runway name="EWR-04L" qfu="4"/>
      <runway name="EWR-04R" qfu="4"/>
      <runway name="EWR-22L" qfu="22"/>
      <runway name="EWR-22R" qfu="22"/>
      <runway name="EWR-11" qfu="11"/>
      <runway name="EWR-29" qfu="29"/>
    </airport>
  </Airports>
  <Sectors/>
  <Arrivals>
    <arrival name="LGA22"/>
    <arrival name="LGA31"/>
  </Arrivals>
  <Departures>
    <departure name="LGA22"/>
    <departure name="LGA31"/>
  </Departures>
  <Segments>
    <segment fromWaypoint="BONNO" toWaypoint="ANZZA"/>
    <segment fromWaypoint="TYRAL" toWaypoint="ARRYA"/>
    <segment fromWaypoint="SHVAL" toWaypoint="TYKES"/>
    <segment fromWaypoint="LGA04" toWaypoint="RAMUP"/>
    <segment fromWaypoint="RAMUP" toWaypoint="BEGNZ"/>
    <segment fromWaypoint="BYRNN" toWaypoint="VERGE"/>
    <segment fromWaypoint="JETAX" toWaypoint="MOTTI"/>
    <segment fromWaypoint="TYKES" toWaypoint="MINKS"/>
    <segment fromWaypoint="EDJER" toWaypoint="DAVYS"/>
    <segment fromWaypoint="AWARE" toWaypoint="FOLAM"/>
    <segment fromWaypoint="FINSI" toWaypoint="AWARE"/>
    <segment fromWaypoint="DAVYS" toWaypoint="HOLEY"/>
    <segment fromWaypoint="VIBES" toWaypoint="FINSI"/>
    <segment fromWaypoint="ENO" toWaypoint="SKIPY"/>
    <segment fromWaypoint="DOSWL" toWaypoint="ELZEE"/>
    <segment fromWaypoint="BESSI" toWaypoint="EDJER"/>
    <segment fromWaypoint="VALRE" toWaypoint="BASYE"/>
    <segment fromWaypoint="COSTL" toWaypoint="TYKES"/>
    <segment fromWaypoint="RBV" toWaypoint="SHVAL"/>
    <segment fromWaypoint="CNRAD" toWaypoint="RBV"/>
    <segment fromWaypoint="IGN" toWaypoint="VALRE"/>
    <segment fromWaypoint="BILLN" toWaypoint="BYRNN"/>
    <segment fromWaypoint="KDAY" toWaypoint="CXR"/>
    <segment fromWaypoint="ELZEE" toWaypoint="HAARP"/>
    <segment fromWaypoint="FURNN" toWaypoint="TAZIE"/>
    <segment fromWaypoint="ANZZA" toWaypoint="LGA31"/>
    <segment fromWaypoint="VERGE" toWaypoint="TYRAL"/>
    <segment fromWaypoint="IKILY" toWaypoint="JETAX"/>
    <segment fromWaypoint="MINKS" toWaypoint="BILLN"/>
    <segment fromWaypoint="AGARD" toWaypoint="SPEAK"/>
    <segment fromWaypoint="COLIN" toWaypoint="GARED"/>
    <segment fromWaypoint="BILEY" toWaypoint="VIBES"/>
    <segment fromWaypoint="ARRYA" toWaypoint="BONNO"/>
    <segment fromWaypoint="PXT" toWaypoint="GARED"/>
    <segment fromWaypoint="TAZIE" toWaypoint="LGA31"/>
    <segment fromWaypoint="GARED" toWaypoint="RIDGY"/>
    <segment fromWaypoint="HAARP" toWaypoint="IKILY"/>
    <segment fromWaypoint="BASYE" toWaypoint="FODAK"/>
    <segment fromWaypoint="MARRC" toWaypoint="BILEY"/>
    <segment fromWaypoint="GVE" toWaypoint="COLIN"/>
    <segment fromWaypoint="RIDGY" toWaypoint="ENO"/>
    <segment fromWaypoint="PALEO" toWaypoint="AGARD"/>
    <segment fromWaypoint="FOLAM" toWaypoint="HAYER"/>
    <segment fromWaypoint="RAMUP" toWaypoint="ALEKS"/>
    <segment fromWaypoint="ETG" toWaypoint="MIP"/>
    <segment fromWaypoint="MOTTI" toWaypoint="FURNN"/>
    <segment fromWaypoint="HAYER" toWaypoint="COSTL"/>
    <segment fromWaypoint="SPEAK" toWaypoint="ENO"/>
    <segment fromWaypoint="HOLEY" toWaypoint="BRAND"/>
    <segment fromWaypoint="SKIPY" toWaypoint="BESSI"/>
    <segment fromWaypoint="BOS27" toWaypoint="WIBAS"/>
    <segment fromWaypoint="BRAND" toWaypoint="KORRY"/>
    <segment fromWaypoint="KORD" toWaypoint="ETG"/>
    <segment fromWaypoint="PSB" toWaypoint="MIP"/>
    <segment fromWaypoint="CXR" toWaypoint="ETG"/>
    <segment fromWaypoint="FODAK" toWaypoint="DOSWL"/>
    <segment fromWaypoint="KORRY" toWaypoint="CNRAD"/>
    <segment fromWaypoint="FATIR" toWaypoint="PALEO"/>
    <segment fromWaypoint="MIP" toWaypoint="MARRC"/>
    <segment fromWaypoint="DCA01" toWaypoint="FIROP"/>
    <segment fromWaypoint="BDL" toWaypoint="BASYE"/>
    <segment fromWaypoint="ADAXE" toWaypoint="BEBLE"/>
    <segment fromWaypoint="HALIR" toWaypoint="SVILL"/>
    <segment fromWaypoint="KUBEY" toWaypoint="FATIR"/>
    <segment fromWaypoint="TON" toWaypoint="PSB"/>
    <segment fromWaypoint="SWL" toWaypoint="GARED"/>
    <segment fromWaypoint="SVILL" toWaypoint="COLIN"/>
    <segment fromWaypoint="KCLT" toWaypoint="GVE"/>
    <segment fromWaypoint="GRACE" toWaypoint="ETG"/>
    <segment fromWaypoint="RIC34" toWaypoint="HALIR"/>
    <segment fromWaypoint="KATL" toWaypoint="GVE"/>
    <segment fromWaypoint="KCMH" toWaypoint="GRACE"/>
    <segment fromWaypoint="COLIN" toWaypoint="PXT"/>
    <segment fromWaypoint="COVTO" toWaypoint="LAZIR"/>
    <segment fromWaypoint="BOSOX" toWaypoint="BDL"/>
    <segment fromWaypoint="LAZIR" toWaypoint="KUBEY"/>
    <segment fromWaypoint="BEBLE" toWaypoint="COVTO"/>
    <segment fromWaypoint="WIBAS" toWaypoint="BOSOX"/>
    <segment fromWaypoint="FIROP" toWaypoint="ADAXE"/>
    <segment fromWaypoint="KCLE" toWaypoint="ETG"/>
    <segment fromWaypoint="KIND" toWaypoint="ETG"/>
  </Segments>
  <Sectors>
    <sector name="Haarp" id="1">
      <region minAltitude="0" maxAltitude="10000">
        <edge latitude="41.18475863562952" longitude="-73.7761583116883" />
        <edge latitude="41.31145039887349" longitude="-73.85529207792207" />
        <edge latitude="41.3027262204939" longitude="-73.79989844155844" />
        <edge latitude="41.34414868499383" longitude="-73.60733961038962" />
        <edge latitude="41.245971464142684" longitude="-73.56777272727273" />
        <edge latitude="41.23067723587523" longitude="-73.47808779220779" />
        <edge latitude="41.05107022304324" longitude="-73.4728122077922" />
        <edge latitude="40.89929963467954" longitude="-73.39895402597402" />
        <edge latitude="40.905910496097114" longitude="-73.52556805194806" />
        <edge latitude="40.98295563911018" longitude="-73.64954428571428" />
        <edge latitude="40.98955251941655" longitude="-73.77352051948051" />
      </region>
    </sector>
    <sector name="Final" id="2">
      <region minAltitude="0" maxAltitude="10000">
        <edge latitude="40.905910496097114" longitude="-73.52556805194806" />
        <edge latitude="40.98295563911018" longitude="-73.64954428571428" />
        <edge latitude="40.98955251941655" longitude="-73.77352051948051" />
        <edge latitude="40.98955251941655" longitude="-73.86056766233766" />
        <edge latitude="40.96095807010409" longitude="-73.81836298701299" />
        <edge latitude="40.77569404956607" longitude="-73.90013454545455" />
        <edge latitude="40.6849527033583" longitude="-73.92123688311688" />
        <edge latitude="40.68716836740331" longitude="-73.90277233766234" />
        <edge latitude="40.69381462112535" longitude="-73.85265428571428" />
        <edge latitude="40.69381462112535" longitude="-73.81044961038961" />
        <edge latitude="40.69381462112535" longitude="-73.7787961038961" />
        <edge latitude="40.8066315605862" longitude="-73.65481987012987" />
        <edge latitude="40.86402305152046" longitude="-73.62580415584415" />
      </region>
    </sector>
      <sector name="Empyr" id="3">
        <region minAltitude="0" maxAltitude="10000">
            <edge latitude="40.773483305530235" longitude="-73.90013454545455" />
            <edge latitude="40.68052100603998" longitude="-73.92387467532467" />
            <edge latitude="40.413717171281114" longitude="-74.10588233766234" />
            <edge latitude="40.375776275780616" longitude="-74.20875623376624" />
            <edge latitude="40.216931019140894" longitude="-74.38548831168832" />
            <edge latitude="40.151871103523945" longitude="-74.38548831168832" />
            <edge latitude="40.086706979261244" longitude="-74.4224174025974" />
            <edge latitude="40.028195308378436" longitude="-74.51474012987013" />
            <edge latitude="40.003415121008366" longitude="-74.59914948051949" />
            <edge latitude="40.01017484330144" longitude="-74.63871636363636" />
            <edge latitude="39.971854977424414" longitude="-74.68883441558442" />
            <edge latitude="40.10918914352775" longitude="-74.77851935064936" />
            <edge latitude="40.10469370257442" longitude="-74.8602909090909" />
            <edge latitude="40.24830198161183" longitude="-74.6967477922078" />
            <edge latitude="40.328858805048824" longitude="-74.95788922077922" />
            <edge latitude="40.525101226925806" longitude="-75.16099922077923" />
            <edge latitude="40.67165613438874" longitude="-75.0713142857143" />
            <edge latitude="40.42486946441138" longitude="-74.833912987013" />
            <edge latitude="40.36014317531731" longitude="-74.50682675324676" />
            <edge latitude="40.38024176374359" longitude="-74.41714181818182" />
            <edge latitude="40.51842688298503" longitude="-74.21403181818182" />
            <edge latitude="40.8066315605862" longitude="-74.02674857142857" />
        </region>
    </sector>
  </Sectors>
</GEOGRAPHY>
